{"type":"FeatureCollection", "features": [
{"type":"Feature","geometry":{"type":"Point","coordinates":[143.14594,-20.7347,0]},"properties":{"name":"Richmond Water Tower","styleUrl":"#m_ylw-pushpin","icon-scale":1.1,"icon-offset":[20,2],"icon-offset-units":["pixels","pixels"],"icon":"http://maps.google.com/mapfiles/kml/pushpin/ylw-pushpin.png"}},
{"type":"Feature","geometry":{"type":"Point","coordinates":[143.14105,-20.7365,0]},"properties":{"name":"Richmond Pump Shed","styleUrl":"#m_ylw-pushpin","icon-scale":1.1,"icon-offset":[20,2],"icon-offset-units":["pixels","pixels"],"icon":"http://maps.google.com/mapfiles/kml/pushpin/ylw-pushpin.png"}},
{"type":"Feature","geometry":{"type":"Point","coordinates":[141.74786,-20.66055,0]},"properties":{"name":"JC Wi-Sky Tower","styleUrl":"#m_ylw-pushpin","icon-scale":1.1,"icon-offset":[20,2],"icon-offset-units":["pixels","pixels"],"icon":"http://maps.google.com/mapfiles/kml/pushpin/ylw-pushpin.png"}},
{"type":"Feature","geometry":{"type":"Point","coordinates":[141.74091,-20.65706,0]},"properties":{"name":"JC Water Tower","styleUrl":"#m_ylw-pushpin","icon-scale":1.1,"icon-offset":[20,2],"icon-offset-units":["pixels","pixels"],"icon":"http://maps.google.com/mapfiles/kml/pushpin/ylw-pushpin.png"}},
{"type":"Feature","geometry":{"type":"Point","coordinates":[142.25325,-18.19802,0]},"properties":{"name":"Croydon Wi-Sky Tower","styleUrl":"#m_ylw-pushpin","icon-scale":1.1,"icon-offset":[20,2],"icon-offset-units":["pixels","pixels"],"icon":"http://maps.google.com/mapfiles/kml/pushpin/ylw-pushpin.png"}},
{"type":"Feature","geometry":{"type":"Point","coordinates":[141.07676,-17.67056,0]},"properties":{"name":"Normanton Water Tower","styleUrl":"#m_ylw-pushpin","icon-scale":1.1,"icon-offset":[20,2],"icon-offset-units":["pixels","pixels"],"icon":"http://maps.google.com/mapfiles/kml/pushpin/ylw-pushpin.png"}},
{"type":"Feature","geometry":{"type":"Point","coordinates":[140.838631,-17.498069,0]},"properties":{"name":"Karumba Water Tower","styleUrl":"#m_ylw-pushpin","icon-scale":1.1,"icon-offset":[20,2],"icon-offset-units":["pixels","pixels"],"icon":"http://maps.google.com/mapfiles/kml/pushpin/ylw-pushpin.png"}}
]}